{
"type": "FeatureCollection",
"name": "NhaThoThuDuc",
"crs": { "type": "name", "properties": { "name": "urn:ogc:def:crs:OGC:1.3:CRS84" } },
"features": [
{ "type": "Feature", "properties": { "Name": "Nhà thờ Giáo xứ Thủ Đức", "description": null, "timestamp": null, "begin": null, "end": null, "altitudeMode": null, "tessellate": -1, "extrude": 0, "visibility": -1, "drawOrder": null, "icon": null }, "geometry": { "type": "Point", "coordinates": [ 106.7571857, 10.8517279, 0.0 ] } },
{ "type": "Feature", "properties": { "Name": "Giáo Xứ Bình Chiểu", "description": null, "timestamp": null, "begin": null, "end": null, "altitudeMode": null, "tessellate": -1, "extrude": 0, "visibility": -1, "drawOrder": null, "icon": null }, "geometry": { "type": "Point", "coordinates": [ 106.730553, 10.8813698, 0.0 ] } },
{ "type": "Feature", "properties": { "Name": "Nhà Thờ Bình Thọ", "description": null, "timestamp": null, "begin": null, "end": null, "altitudeMode": null, "tessellate": -1, "extrude": 0, "visibility": -1, "drawOrder": null, "icon": null }, "geometry": { "type": "Point", "coordinates": [ 106.7712721, 10.8487541, 0.0 ] } },
{ "type": "Feature", "properties": { "Name": "Nhà thờ Giáo xứ Châu Bình", "description": null, "timestamp": null, "begin": null, "end": null, "altitudeMode": null, "tessellate": -1, "extrude": 0, "visibility": -1, "drawOrder": null, "icon": null }, "geometry": { "type": "Point", "coordinates": [ 106.7448535, 10.863132, 0.0 ] } },
{ "type": "Feature", "properties": { "Name": "Nhà Thờ Giáo Xứ Fatima Bình Triệu", "description": null, "timestamp": null, "begin": null, "end": null, "altitudeMode": null, "tessellate": -1, "extrude": 0, "visibility": -1, "drawOrder": null, "icon": null }, "geometry": { "type": "Point", "coordinates": [ 106.7103529, 10.8289855, 0.0 ] } },
{ "type": "Feature", "properties": { "Name": "Nhà thờ Giáo Xứ Hiển Linh", "description": null, "timestamp": null, "begin": null, "end": null, "altitudeMode": null, "tessellate": -1, "extrude": 0, "visibility": -1, "drawOrder": null, "icon": null }, "geometry": { "type": "Point", "coordinates": [ 106.7640528, 10.8609867, 0.0 ] } },
{ "type": "Feature", "properties": { "Name": "Nhà Thờ Giáo Xứ Khiết Tâm", "description": null, "timestamp": null, "begin": null, "end": null, "altitudeMode": null, "tessellate": -1, "extrude": 0, "visibility": -1, "drawOrder": null, "icon": null }, "geometry": { "type": "Point", "coordinates": [ 106.7443123, 10.8756183, 0.0 ] } },
{ "type": "Feature", "properties": { "Name": "Giáo Xứ Thánh Nguyễn Duy Khang", "description": null, "timestamp": null, "begin": null, "end": null, "altitudeMode": null, "tessellate": -1, "extrude": 0, "visibility": -1, "drawOrder": null, "icon": null }, "geometry": { "type": "Point", "coordinates": [ 106.74606, 10.8576327, 0.0 ] } },
{ "type": "Feature", "properties": { "Name": "Nhà Thờ Giáo Xứ Tam Hà", "description": null, "timestamp": null, "begin": null, "end": null, "altitudeMode": null, "tessellate": -1, "extrude": 0, "visibility": -1, "drawOrder": null, "icon": null }, "geometry": { "type": "Point", "coordinates": [ 106.7471644, 10.8619056, 0.0 ] } },
{ "type": "Feature", "properties": { "Name": "Nhà Thờ Giáo Xứ Tam Hải", "description": null, "timestamp": null, "begin": null, "end": null, "altitudeMode": null, "tessellate": -1, "extrude": 0, "visibility": -1, "drawOrder": null, "icon": null }, "geometry": { "type": "Point", "coordinates": [ 106.7429283, 10.8715706, 0.0 ] } },
{ "type": "Feature", "properties": { "Name": "Nhà thờ Giáo xứ Từ Đức", "description": null, "timestamp": null, "begin": null, "end": null, "altitudeMode": null, "tessellate": -1, "extrude": 0, "visibility": -1, "drawOrder": null, "icon": null }, "geometry": { "type": "Point", "coordinates": [ 106.7641533, 10.8475583, 0.0 ] } },
{ "type": "Feature", "properties": { "Name": "Nhà Thờ Xuân Hiệp", "description": null, "timestamp": null, "begin": null, "end": null, "altitudeMode": null, "tessellate": -1, "extrude": 0, "visibility": -1, "drawOrder": null, "icon": null }, "geometry": { "type": "Point", "coordinates": [ 106.7658472, 10.8802705, 0.0 ] } }
]
}
